City_ID,City,Latitude,Longitude,Max Temperature,Humidity,Cloudiness,Wind Speed,Country,Date
0,harper,4.375,-7.7169,79.11,65,98,7.63,LR,1703275068
1,puerto natales,-51.7236,-72.4875,54.05,47,0,19.57,CL,1703275069
2,yellowknife,62.456,-114.3525,13.41,90,100,8.05,CA,1703275071
3,thunder bay,48.4001,-89.3168,37.38,100,100,1.14,CA,1703274854
4,adamstown,-25.066,-130.1015,72.72,91,100,17.67,PN,1703275074
5,bikenibeu village,1.3673,173.1241,80.56,89,75,2.3,KI,1703275076
6,port-aux-francais,-49.35,70.2167,39.52,74,65,32.12,TF,1703275077
7,grytviken,-54.2811,-36.5092,36.25,68,12,11.21,GS,1703275078
8,nadym,65.5333,72.5167,13.8,96,100,6.15,RU,1703275080
9,vadso,70.0744,29.7487,17.76,79,40,9.22,NO,1703275081
10,waitangi,-43.9535,-176.5597,57.81,81,100,5.03,NZ,1703275082
11,polyarnyy,69.1989,33.4478,5.58,100,86,10.31,RU,1703275084
12,blackmans bay,-43.0167,147.3167,50.13,91,22,1.95,AU,1703275085
13,kodiak,57.79,-152.4072,26.11,100,100,6.91,US,1703275086
14,susuman,62.7833,148.1667,-40.25,100,100,0.67,RU,1703275088
15,bredasdorp,-34.5322,20.0403,68.13,86,15,7.27,ZA,1703275089
16,heihe,50.2441,127.4902,-16.02,100,25,1.61,CN,1703275090
17,ushuaia,-54.8,-68.3,58.62,61,75,27.63,AR,1703275009
18,lompoc,34.6391,-120.4579,69.53,66,40,5.01,US,1703275093
19,murun-kuren,49.6342,100.1625,-7.8,92,23,3.94,MN,1703275094
20,tari,12.4086,4.4914,77.0,22,5,10.56,NG,1703275096
21,nova sintra,14.8667,-24.7167,69.42,64,15,17.07,CV,1703275097
22,ntchisi,-13.5278,33.9149,63.91,88,91,2.06,MW,1703275098
23,north bend,43.4065,-124.2243,50.16,93,75,5.75,US,1703275087
24,bilibino,68.0546,166.4372,-22.7,98,99,0.85,RU,1703275102
25,hawaiian paradise park,19.5933,-154.9731,73.04,96,100,0.0,US,1703275103
26,igarka,67.4667,86.5833,9.77,97,98,6.87,RU,1703275105
27,papatowai,-46.5619,169.4708,55.92,91,100,5.66,NZ,1703275106
28,betio village,1.358,172.9211,80.64,78,71,9.37,KI,1703275107
29,petropavlovsk-kamchatsky,53.0452,158.6483,-7.01,59,20,6.71,RU,1703275109
30,madinat ash shamal,26.1293,51.2009,68.23,58,100,10.98,QA,1703275110
31,iqaluit,63.7506,-68.5145,13.73,78,100,28.77,CA,1703275111
32,bethel,41.3712,-73.414,37.89,41,0,4.61,US,1703275113
33,santa luzia,-19.7697,-43.8514,82.78,67,40,9.22,BR,1703275114
34,edinburgh of the seven seas,-37.0676,-12.3116,59.52,69,67,10.07,SH,1703275115
35,jamestown,42.097,-79.2353,41.02,66,100,3.44,US,1703274984
36,kachkanar,58.7,59.4948,30.13,91,100,6.85,RU,1703275118
37,stanley,54.868,-1.6985,45.79,84,0,18.41,GB,1703275119
38,kuala belait,4.5833,114.1833,77.16,90,100,2.89,BN,1703275120
39,oamaru,-45.0784,170.9801,60.39,93,100,5.39,NZ,1703274883
40,dedovichi,57.5517,29.9502,32.92,95,100,9.86,RU,1703275123
41,tura,25.5198,90.2201,61.36,76,100,3.24,IN,1703275121
42,kokshetau,53.2775,69.3883,23.38,95,62,5.75,KZ,1703275125
43,adam,22.3756,57.5233,65.01,42,0,2.51,OM,1703275127
44,majene,-3.5403,118.9707,77.18,82,100,4.16,ID,1703275128
45,nagqu,31.5,92.0,-13.45,84,32,3.13,CN,1703275129
46,hamilton,39.1834,-84.5333,54.25,44,100,8.05,US,1703274880
47,kampene,-3.6,26.6667,69.06,97,94,1.23,CD,1703275132
48,port elizabeth,-33.918,25.5701,72.32,88,0,15.99,ZA,1703275133
49,vilyuysk,63.7553,121.6247,-31.0,100,95,1.99,RU,1703275134
50,hermanus,-34.4187,19.2345,69.8,89,64,9.31,ZA,1703275136
51,port lincoln,-34.7333,135.8667,58.66,83,100,8.34,AU,1703275000
52,las heras,-46.5419,-68.9359,73.15,14,8,23.02,AR,1703275138
53,hedaru,-4.5,37.9,74.17,86,71,5.14,TZ,1703275139
54,west island,-12.1568,96.8225,75.18,94,40,14.97,CC,1703275141
55,novoagansk,61.9449,76.6625,32.72,99,100,8.88,RU,1703275142
56,kapa'a,22.0752,-159.319,75.18,86,75,16.11,US,1703275143
57,st. john's,47.5649,-52.7093,35.98,97,75,11.5,CA,1703274961
58,kolokani,13.5728,-8.0339,71.58,15,39,8.34,ML,1703275147
59,plast,54.3691,60.8136,23.47,93,93,6.13,RU,1703275150
60,grand falls-windsor,48.9332,-55.6649,27.5,94,100,8.99,CA,1703275151
61,forres,57.6113,-3.6108,38.77,93,75,12.66,GB,1703275152
62,ulsteinvik,62.3432,5.8487,31.75,71,9,5.99,NO,1703275154
63,vorgashor,67.5833,63.95,8.35,97,100,3.33,RU,1703275155
64,bayanhongor,46.7167,100.1167,-13.32,81,4,4.43,MN,1703275156
65,hiratacho,35.4333,132.8167,35.62,64,99,11.72,JP,1703275158
66,whitehorse,60.7161,-135.0538,14.77,85,20,5.75,CA,1703275159
67,port mathurin,-19.6833,63.4167,79.38,81,10,7.2,MU,1703275160
68,westport,41.1415,-73.3579,39.15,49,0,6.91,US,1703275087
69,turpan,42.9333,89.1667,20.39,47,0,2.08,CN,1703275163
70,albany,42.6001,-73.9662,33.8,55,1,1.01,US,1703275164
71,saint-philippe,-21.3585,55.7679,78.39,81,13,3.87,RE,1703275166
72,fort bragg,35.139,-79.006,59.58,31,0,4.61,US,1703275167
73,tazovsky,67.4667,78.7,-0.17,98,100,5.97,RU,1703275168
74,utrik,11.2278,169.8474,80.69,80,79,21.99,MH,1703275169
75,abomsa,9.9833,39.9833,71.47,52,3,4.59,ET,1703275171
76,arkhangel'sk,64.5401,40.5433,24.91,92,100,11.18,RU,1703275173
77,lihue,21.9789,-159.3672,74.44,82,75,16.11,US,1703275175
78,ngorongoro,-3.2397,35.4875,59.25,72,100,2.13,TZ,1703275176
79,fort dodge,42.4975,-94.168,52.02,93,100,3.44,US,1703275177
80,arraial do cabo,-22.9661,-42.0278,91.36,70,20,12.66,BR,1703275178
81,gislaved,57.3044,13.5408,29.1,78,100,4.0,SE,1703275180
82,boise,43.6135,-116.2035,38.82,90,100,0.0,US,1703274698
83,puerto gaitan,4.3133,-72.0816,90.39,52,95,11.3,CO,1703275182
84,altamira,-3.2033,-52.2064,93.29,52,40,4.61,BR,1703275183
85,kone,-21.0595,164.8658,81.72,73,90,2.06,NC,1703275185
86,bardai,11.65,7.2333,69.67,22,43,9.57,NG,1703275186
87,tual,-5.6667,132.75,83.46,77,29,10.63,ID,1703275187
88,saudarkrokur,65.7461,-19.6394,13.6,87,99,2.75,IS,1703275189
89,conduaga,8.862,117.4893,78.64,82,100,3.58,PH,1703275190
90,carnarvon,-24.8667,113.6333,72.01,80,6,11.32,AU,1703275191
91,phalaborwa,-23.943,31.1411,79.88,57,28,4.25,ZA,1703275192
92,ilulissat,69.2167,-51.1,-7.08,70,99,8.72,GL,1703275194
93,inarajan village,13.2736,144.7484,81.57,90,65,18.01,GU,1703275195
94,bonnyville,54.2668,-110.735,25.92,83,68,3.47,CA,1703275196
95,kailua-kona,19.6406,-155.9956,78.51,85,100,6.06,US,1703275197
96,talnakh,69.4865,88.3972,10.65,95,100,8.9,RU,1703275199
97,tsiombe,-25.3,45.4833,74.77,80,4,10.85,MG,1703275200
98,atafu village,-8.5421,-172.5159,80.11,90,100,21.65,TK,1703275204
99,alice springs,-23.7,133.8833,65.75,30,27,2.3,AU,1703275208
100,saipan,15.1355,145.701,81.3,83,40,17.27,MP,1703275210
101,tazacorte,28.629,-17.9293,65.37,72,75,14.97,ES,1703275213
102,harrismith,-28.2728,29.1295,60.26,82,63,4.99,ZA,1703275215
103,labrador city,52.9463,-66.9114,3.11,60,20,4.61,CA,1703275217
104,uturoa,-16.7333,-151.4333,79.39,87,100,9.04,PF,1703275218
105,platteville,42.7342,-90.4785,44.69,87,100,3.44,US,1703275220
106,enewetak,11.3474,162.3373,81.45,80,9,21.56,MH,1703275221
107,margaret river,-33.95,115.0667,59.63,83,0,14.97,AU,1703275222
108,gembu,6.7,11.2667,67.03,35,52,3.71,NG,1703275224
109,karratha,-20.7377,116.8463,79.77,62,0,13.18,AU,1703275226
110,nuuk,64.1835,-51.7216,12.81,73,20,20.71,GL,1703275228
111,klaksvik,62.2266,-6.589,32.92,79,97,16.69,FO,1703275231
112,djambala,-2.5447,14.7533,70.86,86,100,2.06,CG,1703275233
113,happy valley-goose bay,53.3168,-60.3315,14.31,62,75,4.61,CA,1703275213
114,webster,42.0501,-71.8801,36.16,34,7,0.76,US,1703274968
115,idrinskoye,54.3708,92.1358,17.98,96,100,4.54,RU,1703275237
116,tiksi,71.6872,128.8694,-19.52,100,100,10.71,RU,1703275239
117,zheshart,62.0731,49.5733,25.02,99,99,1.74,RU,1703275240
118,constantia,44.1833,28.65,41.7,64,100,13.69,RO,1703275244
119,ballina,-28.8667,153.5667,62.78,86,65,6.15,AU,1703275245
120,prince george,53.9166,-122.753,40.44,56,100,16.11,CA,1703274693
121,guarapari,-20.6667,-40.4975,82.89,79,95,8.28,BR,1703275198
122,iquitos,-3.7481,-73.2472,89.64,70,75,5.75,PE,1703275251
123,invercargill,-46.4,168.35,56.01,96,100,3.0,NZ,1703275089
124,chimbote,-9.0853,-78.5783,73.71,73,39,10.71,PE,1703275255
125,laguna,38.421,-121.4238,66.09,81,0,5.75,US,1703275257
126,lawton,34.6087,-98.3903,64.31,75,100,3.44,US,1703275152
127,hami,42.8,93.45,16.23,65,4,7.63,CN,1703275253
128,kourou,5.1552,-52.6478,82.45,91,46,9.31,GF,1703275261
129,gulf shores,30.246,-87.7008,71.38,72,0,11.5,US,1703275081
130,punta arenas,-53.15,-70.9167,53.71,47,40,34.52,CL,1703275218
131,ancud,-41.8697,-73.8203,55.54,88,0,17.0,CL,1703275236
132,el calafate,-50.3408,-72.2768,54.14,51,27,23.47,AR,1703275278
133,haiku-pauwela,20.9219,-156.3051,75.25,78,100,11.99,US,1703275279
134,georgetown,5.4112,100.3354,82.33,82,20,6.91,MY,1703275280
135,olonkinbyen,70.9221,-8.7187,27.48,68,100,20.15,SJ,1703275282
136,puerto baquerizo moreno,-0.9,-89.6,75.2,87,100,12.73,EC,1703275283
137,sisimiut,66.9395,-53.6735,2.34,81,3,12.41,GL,1703275285
138,la ronge,55.1001,-105.2842,28.65,74,40,5.75,CA,1703275289
139,piatykhatky,48.4133,33.7106,37.62,97,100,11.12,UA,1703275290
140,aasiaat,68.7098,-52.8699,-5.48,100,100,8.66,GL,1703275292
141,sitka,57.0531,-135.33,36.9,93,99,1.21,US,1703275295
142,aldinga beach,-35.2793,138.4604,62.76,75,62,5.66,AU,1703275296
143,idri,27.5,13.2667,52.52,34,0,7.27,LY,1703275298
144,avarua,-21.2078,-159.775,77.05,69,75,4.61,CK,1703275300
145,isafjordur,66.0755,-23.124,24.58,88,100,23.0,IS,1703275303
146,bol'sherech'ye,56.0925,74.6272,22.32,94,100,8.28,RU,1703275304
147,thompson,55.7435,-97.8558,23.16,100,100,4.61,CA,1703275306
148,college,64.8569,-147.8028,3.18,82,75,5.75,US,1703275309
149,majie,25.0333,102.6361,35.58,100,100,8.95,CN,1703275310
150,akureyri,65.6835,-18.0878,15.73,92,100,2.3,IS,1703275312
151,brisas de zicatela,15.8369,-97.0419,82.99,49,4,8.43,MX,1703275313
152,afaahiti,-17.75,-149.2833,82.27,83,100,3.09,PF,1703275314
153,lebu,-37.6167,-73.65,60.71,73,7,21.9,CL,1703275317
154,puerto ayora,-0.7393,-90.3518,85.96,90,88,8.99,EC,1703275318
155,udachny,66.4167,112.4,0.45,91,100,8.3,RU,1703275320
156,ribeira grande,38.5167,-28.7,63.0,63,75,8.05,PT,1703275321
157,nema,57.5067,50.5011,32.52,98,100,9.46,RU,1703275323
158,sake,-1.5736,29.045,65.39,93,100,0.76,CD,1703275135
159,upington,-28.4478,21.2561,93.58,22,31,4.61,ZA,1703275257
160,fisterra,42.9049,-9.2629,53.02,79,2,17.18,ES,1703275328
161,bubaque,11.2833,-15.8333,78.21,55,6,9.69,GW,1703275330
162,ankang,32.68,109.0172,33.24,61,0,0.96,CN,1703275331
163,pangoa,-12.1167,-73.0,85.12,62,99,3.11,PE,1703275332
164,valley city,46.9233,-98.0032,43.32,75,0,4.61,US,1703275334
165,saint-joseph,-21.3667,55.6167,77.38,81,9,3.6,RE,1703275335
166,barda,40.3744,47.1267,33.08,44,98,4.47,AZ,1703275337
167,nanyamba,-10.6833,39.8333,73.9,96,99,4.03,TZ,1703275338
168,lodwar,3.1191,35.5973,87.57,37,10,14.0,KE,1703275340
169,abepura,-2.6333,140.5833,74.21,100,40,2.3,ID,1703275341
170,acarau,-2.8856,-40.12,83.68,67,91,21.14,BR,1703275342
171,nova vicosa,-17.8919,-39.3719,81.16,80,60,13.87,BR,1703275114
172,roma,43.2128,-75.4557,36.09,66,0,5.75,US,1703275079
173,cabedelo,-6.9811,-34.8339,84.87,71,39,14.03,BR,1703275347
174,flying fish cove,-10.4217,105.6791,74.88,94,40,3.44,CX,1703275348
175,nouadhibou,20.931,-17.0347,66.18,55,54,9.22,MR,1703275350
176,ambalangoda,6.2355,80.0538,78.91,85,100,4.68,LK,1703275351
177,surin,14.8818,103.4936,57.51,72,100,15.08,TH,1703275353
178,guerrero negro,27.9769,-114.0611,70.18,70,80,14.29,MX,1703275354
179,wailua homesteads,22.0669,-159.378,73.83,88,100,1.99,US,1703275355
180,debre birhan,9.6833,39.5333,50.45,82,2,4.7,ET,1703275358
181,newman,37.3138,-121.0208,62.04,49,7,5.99,US,1703275206
182,hadibu,12.65,54.0333,76.71,71,53,9.17,YE,1703275360
183,benguela,-12.5763,13.4055,79.56,86,100,1.34,AO,1703275362
184,lianzhou,24.7811,112.3825,37.92,53,99,4.41,CN,1703275363
185,amungan,15.3652,119.9582,78.6,63,76,8.9,PH,1703275365
186,mount gambier,-37.8333,140.7667,49.95,86,65,6.35,AU,1703275366
187,daru,-9.0763,143.2092,77.2,91,100,7.47,PG,1703275367
188,colchani,-20.3,-66.9333,72.0,6,6,13.13,BO,1703275368
189,hotan,37.0997,79.9269,22.95,47,32,1.74,CN,1703275370
190,yoichi,43.2039,140.7703,21.43,79,100,17.43,JP,1703275371
191,ust-nera,64.5667,143.2,-36.81,98,100,4.56,RU,1703275372
192,colon,9.3592,-79.9014,82.9,75,89,11.01,PA,1703275374
193,al bardiyah,31.7561,25.0865,62.76,64,5,27.16,LY,1703275375
194,lorengau,-2.0226,147.2712,80.26,80,100,4.45,PG,1703275376
195,san patricio,28.017,-97.5169,76.86,58,100,5.84,US,1703275378
196,port alfred,-33.5906,26.891,66.18,94,17,5.01,ZA,1703275379
197,ron,15.6667,75.7333,67.64,32,72,6.38,IN,1703275381
198,berlin,52.5244,13.4105,40.01,77,75,25.01,DE,1703275382
199,kittila,67.6647,24.8936,-11.96,100,100,3.33,FI,1703275384
200,horta,38.5333,-28.6333,62.24,72,75,8.05,PT,1703275385
201,badger,64.8,-147.5333,6.67,81,75,6.91,US,1703275386
202,praia da vitoria,38.7333,-27.0667,59.25,88,20,7.85,PT,1703275388
203,es castell,39.8795,4.2854,52.48,93,0,6.91,ES,1703275391
204,menomonie,44.8755,-91.9193,41.27,93,100,0.0,US,1703275392
205,ocean city,39.2776,-74.5746,43.05,56,17,5.61,US,1703275394
206,margate,51.3813,1.3862,50.88,74,100,10.0,GB,1703275073
207,santa terezinha,-29.9002,-50.0904,76.53,84,46,7.0,BR,1703275396
208,shijiang,27.0819,110.7933,30.76,49,8,1.34,CN,1703275398
209,mermoz boabab,14.7065,-17.4758,74.98,50,43,11.5,SN,1703275399
210,kidal,18.4411,1.4078,66.67,16,91,10.67,ML,1703275401
211,tyuratam,45.6507,63.3156,27.55,74,3,10.87,KZ,1703275402
212,ola,59.5833,151.2833,-22.86,82,100,8.03,RU,1703275403
213,thala,35.5724,8.6703,45.55,71,3,18.12,TN,1703275405
214,peterhead,57.5058,-1.7981,38.28,70,100,22.24,GB,1703275406
215,walvis bay,-22.9575,14.5053,63.55,77,0,8.05,NA,1703275407
216,komatsu,36.4026,136.4509,31.98,100,100,5.75,JP,1703275409
217,sparti,37.0733,22.4297,55.94,91,47,4.36,GR,1703275410
218,hilo,19.7297,-155.09,73.26,97,100,5.75,US,1703275412
219,anadyr,64.75,177.4833,-16.01,75,0,13.0,RU,1703275277
220,codrington,-38.2667,141.9667,49.41,89,98,7.65,AU,1703275417
221,ketchikan,55.3422,-131.6461,39.18,87,40,3.44,US,1703275418
222,baganga,7.5739,126.56,77.56,87,65,4.25,PH,1703275420
223,amga,60.8953,131.9608,-16.87,99,100,1.19,RU,1703275421
224,hasaki,35.7333,140.8333,28.8,40,0,9.46,JP,1703275422
225,charters towers,-20.1,146.2667,76.24,87,3,8.16,AU,1703275424
226,ta`u,-14.2336,-169.5144,80.37,82,100,19.6,AS,1703275425
227,alva,56.1528,-3.8051,46.94,86,90,5.84,GB,1703275427
228,dwarka,22.2394,68.9678,75.9,55,0,11.43,IN,1703275208
229,byron bay,-28.65,153.6167,62.71,88,55,7.74,AU,1703275325
230,kununurra,-15.7667,128.7333,78.78,83,97,0.0,AU,1703275430
231,rongelap,11.1635,166.8941,80.89,80,97,20.56,MH,1703275432
232,magway,20.15,94.9167,67.62,77,44,4.32,MM,1703275433
233,ishigaki,24.3448,124.1572,59.13,82,75,17.27,JP,1703275434
234,kurumkan,54.3,110.3,-5.87,97,97,3.0,RU,1703275436
235,touros,-5.1989,-35.4608,81.73,68,26,14.32,BR,1703275283
236,hirara,24.8,125.2833,62.46,72,100,17.27,JP,1703275438
237,ingeniero guillermo n. juarez,-23.9,-61.85,93.15,48,55,3.74,AR,1703275441
238,kolonia,50.9333,6.95,51.89,78,75,24.16,DE,1703275210
239,dar chioukh,34.8964,3.4854,45.46,51,0,4.92,DZ,1703275444
240,portstewart,55.1813,-6.714,51.49,90,100,28.54,GB,1703275445
241,victoria point,-27.5833,153.3,69.91,77,50,1.99,AU,1703275447
242,longyearbyen,78.2186,15.6401,6.64,61,75,12.66,SJ,1703275448
243,cooper's town,26.8667,-77.5167,70.54,64,100,16.42,BS,1703275450
244,fale old settlement,-9.3852,-171.2468,80.8,83,100,11.7,TK,1703275451
245,chibougamau,49.9168,-74.3659,13.62,73,100,9.22,CA,1703275418
246,usinsk,65.9939,57.5281,10.08,97,100,3.0,RU,1703275454
247,grand rapids,42.9634,-85.6681,43.83,84,100,5.75,US,1703275315
248,monrovia,6.3005,-10.7969,80.37,68,99,6.89,LR,1703275456
249,siwa oasis,29.2041,25.5195,59.94,50,39,15.7,EG,1703275458
250,yarmouth,41.7057,-70.2286,35.98,65,0,11.01,US,1703275178
251,tara,56.8944,74.371,22.62,95,84,6.62,RU,1703275460
252,cabo san lucas,22.8909,-109.9124,79.75,77,100,7.0,MX,1703275320
253,la passe,45.5549,-0.8967,50.23,86,100,12.93,FR,1703275463
254,wladyslawowo,54.7909,18.4009,36.48,77,100,32.88,PL,1703275464
255,hermosillo,29.0667,-110.9667,82.31,30,75,1.99,MX,1703275466
256,kapuskasing,49.4169,-82.4331,28.49,80,100,11.5,CA,1703275467
257,al bawiti,28.3492,28.8659,59.59,59,29,11.12,EG,1703275468
258,gurjaani,41.7429,45.8011,46.96,47,45,4.72,GE,1703275470
259,berdigestyakh,62.0989,126.6992,-34.55,100,100,1.7,RU,1703275471
260,yokote,39.3,140.5667,26.42,91,100,12.88,JP,1703275455
261,umm kaddadah,13.6017,26.6876,71.04,19,18,15.35,SD,1703275473
262,orthez,43.4884,-0.7724,53.08,90,93,6.67,FR,1703275294
263,saint-denis,48.9167,2.3333,50.77,82,100,14.97,FR,1703275476
264,midvagur,62.0511,-7.1939,32.83,69,100,9.22,FO,1703275477
265,qaqortoq,60.7167,-46.0333,2.12,73,1,8.19,GL,1703275479
266,bharatpur,27.2167,77.4833,55.81,33,7,3.13,IN,1703275480
267,vila velha,-20.3297,-40.2925,82.94,79,20,20.71,BR,1703275481
268,alofi,-19.0595,-169.9187,75.09,88,75,9.22,NU,1703275483
269,remire-montjoly,4.9167,-52.2667,82.44,83,75,6.91,GF,1703275484
270,colonia,50.9333,6.95,51.89,77,75,29.93,DE,1703275485
271,selfoss,63.9331,-20.9971,15.64,50,100,11.59,IS,1703275488
272,marsh harbour,26.5412,-77.0636,70.59,66,100,16.44,BS,1703275207
273,okhotsk,59.3833,143.3,-19.57,87,27,10.29,RU,1703275490
274,lazaro cardenas,17.9583,-102.2,81.97,70,93,8.7,MX,1703275491
275,kalashnikovo,57.2824,35.2262,28.29,96,100,11.97,RU,1703275493
276,warrnambool,-38.3833,142.4833,52.54,84,60,8.79,AU,1703275494
277,ciudad lazaro cardenas,17.9583,-102.2,81.97,70,93,8.7,MX,1703275495
278,pingliang,35.5392,106.6861,22.59,41,42,3.53,CN,1703275497
279,saskatoon,52.1168,-106.6345,35.58,80,75,10.36,CA,1703274938
280,kutum,14.2,24.6667,66.99,21,16,10.78,SD,1703275499
281,pont rouge,48.8833,-72.0825,12.49,54,50,2.39,CA,1703275500
282,calintaan,12.5667,120.9333,77.4,76,78,5.61,PH,1703275502
283,hithadhoo,-0.6,73.0833,79.74,82,100,4.83,MV,1703275504
284,tughyl,47.7252,84.2063,10.15,91,6,8.61,KZ,1703275505
285,bejar,40.3864,-5.7634,43.57,69,1,7.43,ES,1703275507
286,howrah,22.5892,88.3103,62.6,88,7,0.0,IN,1703275216
287,minas de marcona,-15.2119,-75.1103,68.09,73,74,16.6,PE,1703275509
288,san antonio de pale,-1.4014,5.6325,82.18,80,59,5.1,GQ,1703275395
289,brookings,44.3114,-96.7984,37.4,93,100,0.0,US,1703275509
290,namibe,-15.1961,12.1522,73.71,80,100,4.79,AO,1703275513
291,kpandae,8.4689,-0.0113,84.94,18,74,2.84,GH,1703275515
292,la sarre,48.8002,-79.1996,22.82,66,100,7.25,CA,1703275517
293,sinop,41.7711,34.8709,43.59,83,100,11.32,TR,1703275518
294,gora,51.6664,16.5349,37.02,69,28,20.36,PL,1703275520
295,zanjan,36.6736,48.4787,38.98,82,96,13.82,IR,1703275319
296,klyuchi,52.2667,79.1667,19.54,94,74,6.29,RU,1703275522
297,impfondo,1.6381,18.0667,77.59,76,94,3.09,CG,1703275524
298,aberdeen,57.1437,-2.0981,38.37,82,99,13.8,GB,1703275525
299,bokoro,12.3807,17.0568,76.03,21,99,12.48,TD,1703275527
300,malango,-2.9627,119.9001,68.9,98,100,1.43,ID,1703275528
301,znamenka,52.4167,41.4311,34.83,98,100,12.3,RU,1703275530
302,pandan,14.0453,124.1694,78.6,82,89,17.9,PH,1703275531
303,caluula,11.9661,50.7569,77.27,76,5,11.63,SO,1703275532
304,monywa,22.1167,95.1333,66.33,81,3,5.97,MM,1703275534
305,coyhaique,-45.5752,-72.0662,59.61,47,75,8.05,CL,1703275464
306,manokwari,-0.8667,134.0833,79.11,83,100,5.73,ID,1703275536
307,vila franca do campo,37.7167,-25.4333,61.21,80,3,7.63,PT,1703275539
308,piti village,13.4626,144.6933,82.45,89,100,11.5,GU,1703275540
309,nishinoomote,30.7333,131.0,48.2,63,100,17.69,JP,1703275541
310,taksimo,56.3444,114.8794,-7.56,88,96,1.81,RU,1703275543
311,tolanaro,-25.0319,46.9987,78.87,73,75,9.22,MG,1703275544
312,namdrik,5.5994,168.1028,81.93,80,57,18.48,MH,1703275545
313,geraldton,-28.7667,114.6,72.01,73,100,4.61,AU,1703275547
314,the pas,53.8251,-101.2541,26.62,93,0,12.66,CA,1703275548
315,soio,-6.1349,12.3689,80.35,84,100,1.57,AO,1703275549
316,union,40.6334,-74.2663,41.4,40,40,3.0,US,1703275551
317,pak phanang,8.3511,100.202,79.18,76,100,13.6,TH,1703275552
318,ganghwa-gun,37.7472,126.4856,12.09,76,11,3.22,KR,1703275553
319,oneonta,42.4529,-75.0638,38.3,61,15,2.1,US,1703275475
320,canavieiras,-15.675,-38.9472,81.0,76,100,8.23,BR,1703275556
321,sirjan,29.452,55.6814,46.74,42,100,8.01,IR,1703275557
322,lospalos,-8.5186,127.0025,73.78,93,33,3.44,TL,1703275558
323,mahina,-17.5065,-149.489,83.97,74,20,5.75,PF,1703275559
324,bandarbeyla,9.4942,50.8122,77.59,81,24,13.87,SO,1703275561
325,crane,31.3974,-102.3501,66.2,54,5,12.86,US,1703275562
326,kisangani,0.5167,25.2,72.91,97,97,3.2,CD,1703275564
327,hammerfest,70.6634,23.6821,19.85,79,0,4.61,NO,1703275566
328,am timan,11.0297,20.2827,80.8,19,100,7.65,TD,1703275567
329,mukher,18.7,77.3667,64.47,29,70,4.83,IN,1703275568
330,januaria,-15.4833,-44.3667,80.56,65,100,1.36,BR,1703275570
331,taman',45.2117,36.7161,49.42,87,100,22.97,RU,1703275571
332,prainha,-1.8,-53.48,92.53,47,57,8.08,BR,1703275574
333,sao joao de pirabas,-0.7747,-47.1772,82.62,75,80,10.98,BR,1703275576
334,cascais,38.6979,-9.4215,56.05,79,0,3.0,PT,1703275577
335,caleta de carquin,-11.0925,-77.6267,74.23,74,93,9.15,PE,1703275579
336,al burayqah,30.4062,19.5739,64.51,66,96,24.65,LY,1703275580
337,antsohihy,-14.8796,47.9875,77.52,86,92,4.16,MG,1703275581
338,yelizovo,53.1873,158.3805,-5.66,59,20,6.71,RU,1703275582
339,homer,59.6425,-151.5483,28.27,82,100,3.44,US,1703275584
340,ilgin,38.2792,31.9139,45.19,75,100,13.51,TR,1703275585
341,sao joao da barra,-21.6403,-41.0511,87.89,86,67,3.18,BR,1703275448
342,bor,56.3567,44.0669,35.53,100,100,11.95,RU,1703275588
343,taybad,34.74,60.7756,50.31,36,4,15.28,IR,1703275589
344,al kharj,24.155,47.3346,64.98,41,4,10.54,SA,1703275590
345,at taj,24.2049,23.2857,52.3,44,0,8.39,LY,1703275592
346,levuka,50.1834,-105.4011,46.11,61,12,8.75,CA,1703275593
347,mbalmayo,3.5167,11.5,79.12,78,9,3.18,CM,1703275594
348,new norfolk,-42.7826,147.0587,51.71,82,4,1.59,AU,1703275595
349,hailey,43.5196,-114.3153,43.32,73,100,6.91,US,1703275597
350,greymouth,-42.4667,171.2,59.56,94,100,5.37,NZ,1703275598
351,ascension,30.2169,-90.9001,75.42,64,75,5.75,US,1703275599
352,rengasdengklok,-6.1592,107.2981,80.28,73,100,2.73,ID,1703275601
353,mpika,-11.8343,31.4529,64.27,94,91,2.1,ZM,1703275603
354,ivanivka,46.7208,34.553,45.57,83,100,16.24,UA,1703275604
355,queenstown,-31.8976,26.8753,70.43,59,66,5.41,ZA,1703275607
356,maragogi,-9.0122,-35.2225,81.27,69,54,8.3,BR,1703275608
357,katsuren-haebaru,26.3369,127.8719,59.02,76,100,10.36,JP,1703275610
358,sinabang,2.4803,96.3801,79.92,84,100,2.51,ID,1703275611
359,tralee,52.2704,-9.7026,51.15,84,100,15.03,IE,1703275612
360,peace river,56.2501,-117.286,37.71,75,75,3.44,CA,1703275398
361,jalai nur,49.45,117.7,-16.56,86,14,4.94,CN,1703275615
362,arno,60.1167,18.6333,33.78,98,100,14.47,SE,1703275616
363,preobrazheniye,42.9019,133.9064,3.09,79,6,9.82,RU,1703275617
364,obala,4.1667,11.5333,80.47,60,47,2.8,CM,1703275620
365,patacamaya,-17.2333,-67.9167,66.33,38,61,17.4,BO,1703275621
366,i-n-salah,27.1935,2.4607,57.56,30,0,7.43,DZ,1703275622
367,port macquarie,-31.4333,152.9167,64.89,76,6,10.49,AU,1703275611
368,langon,44.5,-0.3333,51.49,75,100,6.93,FR,1703275625
369,nguigmi,14.2495,13.1092,70.0,28,100,13.15,NE,1703275626
370,kupang,-10.1667,123.5833,79.38,100,86,1.14,ID,1703275628
371,uliastay,47.7417,96.8444,-9.17,86,4,6.15,MN,1703275629
372,antalaha,-14.9003,50.2788,78.98,87,6,1.3,MG,1703275630
373,pimentel,-6.8367,-79.9342,79.09,61,75,14.97,PE,1703275632
374,barbalha,-7.3111,-39.3042,90.0,31,100,5.3,BR,1703275633
375,kenai,60.5544,-151.2583,15.15,94,75,13.8,US,1703275635
376,east london,-33.0153,27.9116,77.0,74,99,15.23,ZA,1703275636
377,castillos,-34.1667,-53.8333,70.66,66,3,7.87,UY,1703275637
378,grimstad,58.3405,8.5934,30.11,57,2,17.27,NO,1703275639
379,magadan,59.5667,150.8,-23.48,78,100,8.14,RU,1703275496
380,petauke,-14.2426,31.3253,72.03,80,99,4.85,ZM,1703275641
381,deqen,29.9618,90.7188,26.94,29,100,2.95,CN,1703275643
382,ormond-by-the-sea,29.3491,-81.0665,68.23,82,100,10.36,US,1703275644
383,ujae,8.9322,165.7642,81.05,79,82,20.11,MH,1703275645
384,karema,-6.8205,30.4389,70.79,84,100,3.44,TZ,1703275646
385,sangolqui,-0.3341,-78.4522,73.89,78,100,2.62,EC,1703275632
386,pangody,65.85,74.4859,10.94,96,100,7.2,RU,1703275649
387,maun,-19.9833,23.4167,78.71,59,60,4.74,BW,1703275650
388,leava,-14.3,-178.1667,82.22,79,100,19.33,WF,1703275652
389,springs,-26.25,28.4,73.26,56,38,7.96,ZA,1703275653
390,tenenkou,14.4572,-4.9169,73.67,12,0,9.91,ML,1703275654
391,zouerate,22.7187,-12.4521,60.6,24,12,7.14,MR,1703275656
392,chonchi,-42.6128,-73.8092,65.41,71,71,2.98,CL,1703275657
393,swan hill,-35.3378,143.5544,62.46,59,52,10.96,AU,1703275658
394,road town,18.4167,-64.6167,80.69,73,1,13.24,VG,1703275661
395,zarghun shahr,32.8473,68.4457,36.43,71,26,3.83,AF,1703275662
396,zhalantun,48.0,122.7167,-7.35,84,1,7.63,CN,1703275664
397,pavlodar,52.3,76.95,17.4,93,75,6.71,KZ,1703275665
398,chulakkurgan,43.765,69.1814,29.1,51,0,2.51,KZ,1703275666
399,kimbe,-5.5502,150.1429,75.83,95,100,2.59,PG,1703275668
400,cannonvale,-20.2833,148.7,78.19,90,21,8.39,AU,1703275669
401,pizarro,4.9533,-77.366,82.9,82,100,5.68,CO,1703275670
402,nieuw amsterdam,5.8833,-55.0833,84.22,82,40,2.3,SR,1703275672
403,villamontes,-21.25,-63.5,87.8,53,100,1.72,BO,1703275673
404,kayes,14.0,-11.0,76.6,14,15,6.4,ML,1703275674
405,jinchang,38.4953,102.1739,23.0,71,100,7.94,CN,1703275676
406,kani keli,-12.9536,45.1033,83.46,71,9,4.65,YT,1703275677
407,makungu,-8.7333,35.2833,66.13,99,100,1.59,TZ,1703275679
408,mantua,45.1667,10.7833,54.64,65,3,10.56,IT,1703275680
409,hitoyoshi,32.2167,130.75,31.64,86,13,2.28,JP,1703275682
410,tereze,43.9361,42.4434,28.8,68,99,3.69,RU,1703275683
411,mugia,43.1041,-9.2179,48.9,78,6,16.28,ES,1703275685
412,ambon,-3.6954,128.1814,77.14,94,40,2.3,ID,1703275543
413,vuktyl,63.8567,57.3094,25.11,98,99,3.0,RU,1703275688
414,mossel bay,-34.1831,22.146,69.96,84,4,15.35,ZA,1703275689
415,le port,-20.9373,55.2919,78.8,91,5,3.4,RE,1703275691
416,gandorhun,7.5,-11.8333,73.99,63,53,3.8,SL,1703275692
417,xuddur,4.1213,43.8894,80.62,63,51,17.81,SO,1703275694
418,naze,28.3667,129.4833,52.47,69,100,13.38,JP,1703275695
419,okha,53.5739,142.9478,-12.77,95,69,12.8,RU,1703275696
420,najran,17.4924,44.1277,63.25,40,0,1.66,SA,1703275698
421,villa de san francisco,14.1667,-86.9667,76.48,62,77,7.09,HN,1703275699
422,san julian,21.0167,-102.1667,62.4,40,100,5.17,MX,1703275701
423,montepuez,-13.1256,38.9997,72.19,98,100,3.78,MZ,1703275703
424,emerald,-23.5333,148.1667,72.34,94,0,10.47,AU,1703275704
425,fort st. john,56.2499,-120.8529,40.96,62,89,15.61,CA,1703275675
426,tarauaca,-8.1614,-70.7656,88.48,57,58,3.6,BR,1703275707
427,sovetskiy,61.3614,63.5842,33.04,92,100,9.19,RU,1703275708
428,sao tome,0.3365,6.7273,81.46,85,57,5.3,ST,1703275709
429,qarauyl,48.9451,79.255,14.09,86,7,7.99,KZ,1703275711
430,pacasmayo,-7.4006,-79.5714,73.42,74,100,13.09,PE,1703275712
431,bonthe,7.5264,-12.505,77.23,63,7,7.05,SL,1703275713
432,antofagasta,-23.65,-70.4,69.08,70,43,8.97,CL,1703275419
433,callao,-12.0667,-77.15,75.49,64,0,12.66,PE,1703275716
434,abancay,-13.6339,-72.8814,75.72,52,91,7.36,PE,1703275717
435,tulum,20.2167,-87.4667,81.52,51,77,8.23,MX,1703275718
436,ulverston,54.1959,-3.0963,50.67,86,100,22.55,GB,1703275720
437,durban,-29.8579,31.0292,77.18,90,100,8.1,ZA,1703275721
438,balqash,46.8481,74.995,27.55,81,5,14.74,KZ,1703275722
439,jilib,0.4883,42.7854,81.88,78,86,9.93,SO,1703275638
440,aral,40.5156,81.2636,24.12,45,0,2.53,CN,1703275725
441,rio preto da eva,-2.6994,-59.6997,74.97,99,100,1.52,BR,1703275726
442,bayside,40.8424,-124.0637,52.9,92,100,10.36,US,1703275728
443,mariental,-24.6333,17.9667,93.07,18,73,11.27,NA,1703275729
444,puerto santa,-8.9906,-78.6456,72.45,78,29,10.16,PE,1703275730
445,degerfors,59.238,14.4308,27.68,89,100,13.09,SE,1703275732
446,morozovsk,48.3539,41.8261,44.29,78,100,15.97,RU,1703275733
447,yuzhno-kurilsk,44.0306,145.8556,24.37,67,18,13.51,RU,1703275735
448,gopalpur,19.2667,84.9167,65.08,73,11,3.85,IN,1703275737
449,bukama,-9.2,25.85,71.35,94,100,0.92,CD,1703275637
450,hemsby,52.6971,1.6918,50.41,85,100,26.37,GB,1703275739
451,quellon,-43.1167,-73.6167,56.32,78,70,10.45,CL,1703275741
452,mount pearl,47.5166,-52.7813,33.85,99,100,14.5,CA,1703275742
453,volchikha,52.0333,80.3833,13.98,91,41,5.01,RU,1703275744
454,sangkhla buri,15.1555,98.4536,59.99,78,56,2.64,TH,1703275745
455,island harbour,50.724,-1.2758,51.48,80,100,7.0,GB,1703275746
456,tomohon,1.3346,124.8392,67.01,92,97,0.56,ID,1703275747
457,arteche,12.2645,125.4048,77.9,82,100,9.53,PH,1703275749
458,rio grande,-32.035,-52.0986,73.94,74,13,10.71,BR,1703275657
459,tarakan,3.3,117.6333,79.09,84,84,3.87,ID,1703275751
460,port hueneme,34.1478,-119.1951,71.37,69,75,11.5,US,1703275753
461,iskateley,67.6803,53.1512,-1.98,100,89,5.99,RU,1703275754
462,umluj,25.0213,37.2685,72.55,49,100,11.83,SA,1703275755
463,maxixe,-23.8597,35.3472,75.79,82,31,7.2,MZ,1703275757
464,alto araguaia,-17.3147,-53.2153,78.91,73,100,7.83,BR,1703275833
465,khandyga,62.6667,135.6,-38.13,99,100,2.75,RU,1703275835
466,sault ste. marie,46.5168,-84.3333,34.36,84,100,9.22,CA,1703275550
467,ca mau,9.1769,105.15,75.94,66,100,10.22,VN,1703275837
468,mae ramat,16.984,98.5166,65.8,86,86,2.95,TH,1703275839
469,vyazemskiy,47.5378,134.7525,-28.44,99,21,2.86,RU,1703275840
470,booue,-0.0921,11.9385,77.61,84,94,2.17,GA,1703275841
471,lionel town,17.8101,-77.2406,84.09,74,32,9.8,JM,1703275843
472,saint-francois,46.4154,3.9054,47.64,93,100,11.5,FR,1703275844
473,ad dilam,23.9915,47.1627,64.81,41,3,10.74,SA,1703275847
474,sragen,-7.4264,111.0222,75.4,80,99,4.97,ID,1703275848
475,parapat,2.663,98.9349,67.1,94,100,1.05,ID,1703275849
476,timimoun,29.2639,0.231,56.07,42,0,7.56,DZ,1703275850
477,west plains,36.7281,-91.8524,53.28,83,100,8.05,US,1703275651
478,cockburn town,21.4612,-71.1419,76.32,63,51,19.26,TC,1703275853
479,axim,4.8699,-2.2405,80.49,74,100,6.44,GH,1703275855
480,northam,51.0333,-4.2167,51.62,85,84,21.68,GB,1703275856
481,zhaodong,46.0833,125.9833,-13.13,95,11,4.38,CN,1703275858
482,santana,-0.0583,-51.1817,89.78,66,40,13.8,BR,1703275859
483,vikulovo,56.8167,70.6107,32.45,92,100,12.24,RU,1703275860
484,vilyuchinsk,52.9306,158.4028,-5.53,85,75,6.87,RU,1703275862
485,ghadamis,30.1337,9.5007,53.69,55,0,4.85,LY,1703275863
486,san borja,-14.8167,-66.85,91.36,57,99,2.51,BO,1703275865
487,kawardha,22.0167,81.25,63.93,33,100,1.77,IN,1703275866
488,otaki,-40.7583,175.15,67.95,83,100,1.99,NZ,1703275797
489,verkhnyaya sinyachikha,57.976,61.6673,30.07,93,100,7.2,RU,1703275869
490,santyoku,37.4406,129.1708,20.43,56,0,10.58,KR,1703275870
491,kattivakkam,13.2167,80.3167,71.69,73,99,10.02,IN,1703275871
492,polillo,14.7122,121.9392,76.44,89,100,21.41,PH,1703275873
493,mananjary,-21.2167,48.3333,78.51,88,87,3.49,MG,1703275874
494,morehead city,34.7229,-76.726,58.03,51,0,6.91,US,1703275875
495,aykhal,66.0,111.5,-4.4,96,100,9.6,RU,1703275877
496,jayapura,-2.5333,140.7,74.59,89,100,4.36,ID,1703275690
497,huntsville,34.7304,-86.5861,61.36,39,0,9.22,US,1703275881
498,kesap,40.9164,38.5144,55.22,63,93,8.39,TR,1703275882
499,fernie,49.5,-115.0687,43.0,90,95,5.73,CA,1703275884
500,chateau-renault,47.5919,0.9114,48.74,74,100,12.26,FR,1703275886
501,mumford,5.2618,-0.759,80.73,81,11,6.62,GH,1703275888
502,pilar,-9.5972,-35.9567,80.53,64,91,8.72,BR,1703275889
503,olyokminsk,60.3736,120.4264,1.69,97,100,4.68,RU,1703275891
504,weingarten,47.8,9.6333,47.53,94,100,23.02,DE,1703275892
505,chernomorskoye,45.5039,32.6997,47.43,77,100,19.17,UA,1703275893
506,cidreira,-30.1811,-50.2056,76.17,83,58,11.92,BR,1703275895
507,shabqadar,34.2139,71.5552,55.62,19,100,3.09,PK,1703275896
508,cozumel,20.5083,-86.9458,81.07,69,40,8.05,MX,1703275897
509,shenkursk,62.1091,42.896,27.43,91,100,8.12,RU,1703275899
510,tan-tan,28.438,-11.1032,64.56,21,0,10.89,MA,1703275900
511,saint-leu,-21.15,55.2833,77.86,90,5,4.76,RE,1703275902
512,piacabucu,-10.4056,-36.4344,81.66,66,56,9.93,BR,1703275866
513,popondetta,-8.7537,148.2534,73.02,94,97,2.01,PG,1703275904
514,freetown,8.484,-13.2299,77.29,63,2,3.53,SL,1703275905
515,sarkand,45.41,79.9186,32.23,65,1,8.23,KZ,1703275907
516,portland,45.5234,-122.6762,46.83,95,100,7.0,US,1703275661
517,kargopol',61.5071,38.9456,30.27,92,100,11.81,RU,1703275909
518,payyannur,12.1,75.2,77.7,83,100,3.96,IN,1703275911
519,kavieng,-2.5744,150.7967,80.64,83,100,5.48,PG,1703275912
520,birjand,32.8663,59.2211,44.2,42,0,6.02,IR,1703275913
521,qamdo,31.1667,97.2333,11.82,26,0,2.39,CN,1703275915
522,miyako,39.6367,141.9525,27.63,69,47,5.68,JP,1703275916
523,kirakira,-10.4544,161.9205,80.87,83,45,1.72,SB,1703275917
524,taltal,-25.4,-70.4833,69.98,69,23,8.46,CL,1703275919
525,isabel segunda,18.1491,-65.4427,80.87,92,11,4.0,PR,1703275920
526,coronel dorrego,-38.7187,-61.2873,74.55,58,71,3.53,AR,1703275921
527,grigoropolisskaya,45.2972,41.0567,47.08,64,100,1.92,RU,1703275923
528,prince rupert,54.3161,-130.3201,42.49,75,100,14.97,CA,1703275924
529,joshimath,30.5667,79.5667,53.67,20,100,4.29,IN,1703275926
530,sonoita,31.85,-112.8333,58.69,85,100,9.55,MX,1703275927
531,camarinas,43.1311,-9.1817,53.19,79,10,15.35,ES,1703275928
532,metlili chaamba,32.2667,3.6333,54.72,38,0,9.1,DZ,1703275930
533,nuku'alofa,-21.1333,-175.2,80.94,74,20,13.8,TO,1703275931
534,rio rancho,35.2334,-106.6645,56.8,55,40,5.01,US,1703275932
535,galliano,29.4422,-90.2992,73.99,60,40,6.91,US,1703275934
536,waitara,-38.925,174.25,64.99,81,93,7.67,NZ,1703275935
537,fort mcmurray,56.7268,-111.381,33.39,74,0,9.22,CA,1703275936
